[{"name":"RAEDHANPUR","Lat":"23.222(N)","Lon":"68.891(E)"},{"name":"PORBANDAR","Lat":"21.649(N)","Lon":"69.657(E)"},{"name":"BHUJ","Lat":"23.288(N)","Lon":"69.670(E)"},{"name":"KANDLA","Lat":"23.113(N)","Lon":"70.100(E)"},{"name":"KESHOD","Lat":"21.317(N)","Lon":"70.270(E)"},{"name":"RAJKOT","Lat":"22.309(N)","Lon":"70.780(E)"},{"name":"JAISALMER","Lat":"26.889(N)","Lon":"70.865(E)"},{"name":"UTTARLAI","Lat":"25.813(N)","Lon":"71.482(E)"},{"name":"AGATTI","Lat":"10.824(N)","Lon":"72.176(E)"},{"name":"BHAVNAGAR","Lat":"21.752(N)","Lon":"72.185(E)"},{"name":"DEESA","Lat":"24.268(N)","Lon":"72.204(E)"},{"name":"PHALODI","Lat":"27.113(N)","Lon":"72.389(E)"},{"name":"AHMEDABAD","Lat":"23.077(N)","Lon":"72.635(E)"},{"name":"SURAT","Lat":"21.114(N)","Lon":"72.742(E)"},{"name":"DAMAN","Lat":"20.434(N)","Lon":"72.843(E)"},{"name":"VADODARA","Lat":"22.336(N)","Lon":"73.226(E)"},{"name":"RATNAGIRI","Lat":"17.014(N)","Lon":"73.328(E)"},{"name":"NAGAUR","Lat":"27.208(N)","Lon":"73.711(E)"},{"name":"UDAIPUR","Lat":"24.618(N)","Lon":"73.896(E)"},{"name":"SURATGARH NEW","Lat":"29.388(N)","Lon":"73.904(E)"},{"name":"KARAD","Lat":"17.286(N)","Lon":"74.158(E)"},{"name":"KOLHAPUR","Lat":"16.665(N)","Lon":"74.289(E)"},{"name":"ONDWA","Lat":"25.141(N)","Lon":"74.611(E)"},{"name":"BELGAUM","Lat":"15.859(N)","Lon":"74.618(E)"},{"name":"BHATINDA","Lat":"30.270(N)","Lon":"74.756(E)"},{"name":"AMRITSAR","Lat":"31.710(N)","Lon":"74.797(E)"},{"name":"JAMMU","Lat":"32.689(N)","Lon":"74.837(E)"},{"name":"NIMACH","Lat":"24.431(N)","Lon":"74.868(E)"},{"name":"MANGALORE","Lat":"12.961(N)","Lon":"74.890(E)"},{"name":"AWANTIPUR","Lat":"33.877(N)","Lon":"74.976(E)"},{"name":"SIRSA","Lat":"29.561(N)","Lon":"75.006(E)"},{"name":"RATLAM","Lat":"23.381(N)","Lon":"75.026(E)"},{"name":"HUBLI","Lat":"15.362(N)","Lon":"75.085(E)"},{"name":"UDHAMPUR","Lat":"32.902(N)","Lon":"75.156(E)"},{"name":"JALLOWAL","Lat":"31.560(N)","Lon":"75.341(E)"},{"name":"JHUNJHUNU","Lat":"28.107(N)","Lon":"75.376(E)"},{"name":"BIRLAGRAM","Lat":"23.447(N)","Lon":"75.420(E)"},{"name":"PILANI NEW","Lat":"28.349(N)","Lon":"75.594(E)"},{"name":"HALWARA","Lat":"30.749(N)","Lon":"75.630(E)"},{"name":"PATHANKOT","Lat":"32.234(N)","Lon":"75.635(E)"},{"name":"HISSAR","Lat":"29.179(N)","Lon":"75.755(E)"},{"name":"ADAMPUR","Lat":"31.434(N)","Lon":"75.759(E)"},{"name":"HARIHAR","Lat":"14.535(N)","Lon":"75.787(E)"},{"name":"JAIPUR","Lat":"26.824(N)","Lon":"75.812(E)"},{"name":"KOTA","Lat":"25.160(N)","Lon":"75.846(E)"},{"name":"SHOLAPUR","Lat":"17.628(N)","Lon":"75.935(E)"},{"name":"LUDHIANA","Lat":"30.855(N)","Lon":"75.953(E)"},{"name":"KARGIL","Lat":"34.524(N)","Lon":"76.156(E)"},{"name":"BHIWANI","Lat":"28.837(N)","Lon":"76.179(E)"},{"name":"BHILWARA","Lat":"28.077(N)","Lon":"76.205(E)"},{"name":"PATIALA","Lat":"30.315(N)","Lon":"76.364(E)"},{"name":"MUROD KOND","Lat":"18.411(N)","Lon":"76.465(E)"},{"name":"AMBALA","Lat":"30.368(N)","Lon":"76.817(E)"},{"name":"KALKA","Lat":"30.821(N)","Lon":"76.892(E)"},{"name":"KARNAL","Lat":"29.714(N)","Lon":"77.038(E)"},{"name":"COIMBATORE","Lat":"11.030(N)","Lon":"77.043(E)"},{"name":"AKOLA","Lat":"20.699(N)","Lon":"77.059(E)"},{"name":"SHIMLA","Lat":"31.082(N)","Lon":"77.068(E)"},{"name":"KULLU MANALI","Lat":"31.877(N)","Lon":"77.154(E)"},{"name":"NANDER","Lat":"19.182(N)","Lon":"77.318(E)"},{"name":"BHOPAL","Lat":"23.287(N)","Lon":"77.337(E)"},{"name":"GUNA","Lat":"24.655(N)","Lon":"77.347(E)"},{"name":"HINDON","Lat":"28.708(N)","Lon":"77.359(E)"},{"name":"THOISE","Lat":"34.653(N)","Lon":"77.376(E)"},{"name":"SARSAWA","Lat":"29.994(N)","Lon":"77.425(E)"},{"name":"BIDAR","Lat":"17.908(N)","Lon":"77.487(E)"},{"name":"LEH","Lat":"34.136(N)","Lon":"77.547(E)"},{"name":"Jakkur Airfield","Lat":"13.077(N)","Lon":"77.598(E)"},{"name":"MEERUT SW","Lat":"28.905(N)","Lon":"77.677(E)"},{"name":"HOSUR","Lat":"12.661(N)","Lon":"77.767(E)"},{"name":"Kayathar Airstrip","Lat":"8.971(N)","Lon":"77.821(E)"},{"name":"KOVILPATTI","Lat":"9.154(N)","Lon":"77.821(E)"},{"name":"Daulat Beg Oldi Advanced Landing Ground","Lat":"35.389(N)","Lon":"77.933(E)"},{"name":"AGRA","Lat":"27.156(N)","Lon":"77.961(E)"},{"name":"TUTICORIN SOUTHWEST","Lat":"8.724(N)","Lon":"78.026(E)"},{"name":"SALEM","Lat":"11.783(N)","Lon":"78.066(E)"},{"name":"MADURAI","Lat":"9.835(N)","Lon":"78.093(E)"},{"name":"AMLA","Lat":"21.926(N)","Lon":"78.114(E)"},{"name":"DEHRADUN","Lat":"30.190(N)","Lon":"78.180(E)"},{"name":"BAND TAL","Lat":"26.000(N)","Lon":"78.262(E)"},{"name":"BHARKOT","Lat":"30.583(N)","Lon":"78.323(E)"},{"name":"HAKIMPET","Lat":"17.553(N)","Lon":"78.525(E)"},{"name":"JHANSI","Lat":"25.491(N)","Lon":"78.558(E)"},{"name":"CUDDAPAH","Lat":"14.510(N)","Lon":"78.773(E)"},{"name":"Chettinad Airstrip","Lat":"10.165(N)","Lon":"78.794(E)"},{"name":"DHANA","Lat":"23.754(N)","Lon":"78.856(E)"},{"name":"THUNIABHAND","Lat":"22.002(N)","Lon":"78.917(E)"},{"name":"FUKCHE","Lat":"32.937(N)","Lon":"79.213(E)"},{"name":"CHANDA","Lat":"19.995(N)","Lon":"79.222(E)"},{"name":"NAGARJUNA SAGAR","Lat":"16.543(N)","Lon":"79.319(E)"},{"name":"BAREILLY","Lat":"28.422(N)","Lon":"79.451(E)"},{"name":"Neyveli Airport","Lat":"11.613(N)","Lon":"79.527(E)"},{"name":"TIRUPATI","Lat":"13.632(N)","Lon":"79.543(E)"},{"name":"ARKONAM","Lat":"13.071(N)","Lon":"79.691(E)"},{"name":"PONDICHERRY","Lat":"11.969(N)","Lon":"79.810(E)"},{"name":"KHAJURAHO","Lat":"24.817(N)","Lon":"79.919(E)"},{"name":"JABALPUR","Lat":"23.178(N)","Lon":"80.052(E)"},{"name":"KALYANPUR","Lat":"26.520(N)","Lon":"80.233(E)"},{"name":"PITHORGARH","Lat":"29.594(N)","Lon":"80.239(E)"},{"name":"GONDIA","Lat":"21.526(N)","Lon":"80.290(E)"},{"name":"KANPUR","Lat":"26.441(N)","Lon":"80.365(E)"},{"name":"VIJAYAWADA","Lat":"16.530(N)","Lon":"80.797(E)"},{"name":"SATNA","Lat":"24.562(N)","Lon":"80.855(E)"},{"name":"LUCKNOW","Lat":"26.761(N)","Lon":"80.889(E)"},{"name":"CHORHATA","Lat":"24.503(N)","Lon":"81.220(E)"},{"name":"BHILAI","Lat":"21.294(N)","Lon":"81.379(E)"},{"name":"FURSATGANJ","Lat":"26.248(N)","Lon":"81.381(E)"},{"name":"BURHAR","Lat":"23.235(N)","Lon":"81.504(E)"},{"name":"RAIPUR","Lat":"21.180(N)","Lon":"81.739(E)"},{"name":"SIDHI","Lat":"24.402(N)","Lon":"81.815(E)"},{"name":"RAJAHMUNDRY","Lat":"17.110(N)","Lon":"81.818(E)"},{"name":"BILASPUR","Lat":"21.988(N)","Lon":"82.111(E)"},{"name":"AKBARPUR","Lat":"26.448(N)","Lon":"82.568(E)"},{"name":"VARANASI","Lat":"25.452(N)","Lon":"82.859(E)"},{"name":"MUIRPUR","Lat":"24.125(N)","Lon":"83.041(E)"},{"name":"UTKELA","Lat":"20.097(N)","Lon":"83.184(E)"},{"name":"VISHAKHAPATNAM","Lat":"17.721(N)","Lon":"83.224(E)"},{"name":"NUAGAON","Lat":"20.512(N)","Lon":"83.448(E)"},{"name":"GORAKHPUR","Lat":"26.740(N)","Lon":"83.450(E)"},{"name":"JHARSUGUDA","Lat":"21.914(N)","Lon":"84.050(E)"},{"name":"DALTONGANJ","Lat":"24.019(N)","Lon":"84.095(E)"},{"name":"ROURKELA","Lat":"22.257(N)","Lon":"84.815(E)"},{"name":"Raxaul Airport","Lat":"26.967(N)","Lon":"84.833(E)"},{"name":"GAYA","Lat":"24.744(N)","Lon":"84.951(E)"},{"name":"PATNA","Lat":"25.591(N)","Lon":"85.088(E)"},{"name":"MUZAFFARPUR","Lat":"26.119(N)","Lon":"85.314(E)"},{"name":"BHUBANESHWAR","Lat":"20.244(N)","Lon":"85.818(E)"},{"name":"CUTTACK","Lat":"20.550(N)","Lon":"85.886(E)"},{"name":"DARBHANGA","Lat":"26.193(N)","Lon":"85.917(E)"},{"name":"JAMSHEDPUR","Lat":"22.813(N)","Lon":"86.169(E)"},{"name":"GIRIDIH","Lat":"24.202(N)","Lon":"86.290(E)"},{"name":"DHANBAD","Lat":"23.834(N)","Lon":"86.425(E)"},{"name":"Chakulia Airport","Lat":"22.461(N)","Lon":"86.708(E)"},{"name":"BURNPUR","Lat":"23.631(N)","Lon":"86.976(E)"},{"name":"KALAIKUNDA","Lat":"22.340(N)","Lon":"87.214(E)"},{"name":"PURNEA","Lat":"25.760(N)","Lon":"87.410(E)"},{"name":"PANAGARH","Lat":"23.474(N)","Lon":"87.428(E)"},{"name":"BARRACKPORE","Lat":"22.781(N)","Lon":"88.359(E)"},{"name":"Pakyong Airport (Under Construction)","Lat":"27.231(N)","Lon":"88.587(E)"},{"name":"COOCH BEHAR","Lat":"26.331(N)","Lon":"89.467(E)"},{"name":"Rupsi India Airport","Lat":"26.140(N)","Lon":"89.910(E)"},{"name":"Baljek Airport","Lat":"25.661(N)","Lon":"90.345(E)"},{"name":"AGARTALA","Lat":"23.887(N)","Lon":"91.240(E)"},{"name":"Kamalpur Airport","Lat":"24.132(N)","Lon":"91.814(E)"},{"name":"KAILASHAHAR","Lat":"24.308(N)","Lon":"92.007(E)"},{"name":"TEZPUR","Lat":"26.709(N)","Lon":"92.785(E)"},{"name":"CARNICOBAR","Lat":"9.153(N)","Lon":"92.820(E)"},{"name":"DIMAPUR","Lat":"25.884(N)","Lon":"93.771(E)"},{"name":"ZERO","Lat":"27.588(N)","Lon":"93.828(E)"},{"name":"IMPHAL","Lat":"24.760(N)","Lon":"93.897(E)"},{"name":"CAMPBELL BAY","Lat":"7.013(N)","Lon":"93.923(E)"},{"name":"Koirengei Airstrip","Lat":"24.872(N)","Lon":"93.926(E)"},{"name":"MACHUKA","Lat":"28.605(N)","Lon":"94.124(E)"},{"name":"JORHAT","Lat":"26.732(N)","Lon":"94.176(E)"},{"name":"Daporijo Airport","Lat":"27.986(N)","Lon":"94.223(E)"},{"name":"ALONG","Lat":"28.175(N)","Lon":"94.802(E)"},{"name":"DIBRUGARH","Lat":"27.484(N)","Lon":"95.017(E)"},{"name":"SOOKERATING","Lat":"27.553(N)","Lon":"95.571(E)"},{"name":"CHAUKAN PASS","Lat":"27.194(N)","Lon":"97.004(E)"},{"name":"Walong Advanced Landing Ground","Lat":"28.130(N)","Lon":"97.020(E)"},{"name":"LENGPUI","Lat":"23.841(N)","Lon":"92.620(E)"},{"name":"ALLAHABAD","Lat":"25.440(N)","Lon":"81.734(E)"},{"name":"AURANGABAD","Lat":"19.863(N)","Lon":"75.398(E)"},{"name":"Balurghat Airport","Lat":"25.262(N)","Lon":"88.796(E)"},{"name":"BANGALORE","Lat":"12.950(N)","Lon":"77.668(E)"},{"name":"Bengaluru International Airport","Lat":"13.198(N)","Lon":"77.706(E)"},{"name":"Behala Airport","Lat":"22.504(N)","Lon":"88.293(E)"},{"name":"BELLARY","Lat":"15.163(N)","Lon":"76.883(E)"},{"name":"NAL","Lat":"28.071(N)","Lon":"73.207(E)"},{"name":"CHANDIGARH","Lat":"30.673(N)","Lon":"76.789(E)"},{"name":"TAMBARAM","Lat":"12.907(N)","Lon":"80.122(E)"},{"name":"COCHIN INTL","Lat":"10.152(N)","Lon":"76.402(E)"},{"name":"GOA","Lat":"15.381(N)","Lon":"73.831(E)"},{"name":"INDIRA GANDHI INTL","Lat":"28.567(N)","Lon":"77.103(E)"},{"name":"SAFDARJUNG","Lat":"28.585(N)","Lon":"77.206(E)"},{"name":"CHABUA","Lat":"27.462(N)","Lon":"95.118(E)"},{"name":"DIU","Lat":"20.713(N)","Lon":"70.921(E)"},{"name":"Dunakonda Airport","Lat":"15.833(N)","Lon":"79.500(E)"},{"name":"KANGRA","Lat":"32.165(N)","Lon":"76.263(E)"},{"name":"Glidodrome","Lat":"17.306(N)","Lon":"78.560(E)"},{"name":"GUWAHATI INTL","Lat":"26.106(N)","Lon":"91.586(E)"},{"name":"GWALIOR","Lat":"26.293(N)","Lon":"78.228(E)"},{"name":"Kopal,Hospet Airport","Lat":"15.358(N)","Lon":"76.517(E)"},{"name":"DUNDIGUL","Lat":"17.627(N)","Lon":"78.403(E)"},{"name":"Rajiv Gandhi International Airport","Lat":"17.231(N)","Lon":"78.430(E)"},{"name":"HYDERABAD","Lat":"17.453(N)","Lon":"78.468(E)"},{"name":"DEVI AHILYABAI HOLKAR","Lat":"22.722(N)","Lon":"75.801(E)"},{"name":"JAGDALPUR","Lat":"19.074(N)","Lon":"82.037(E)"},{"name":"HASHIMARA","Lat":"26.698(N)","Lon":"89.369(E)"},{"name":"JAMNAGAR","Lat":"22.466(N)","Lon":"70.013(E)"},{"name":"Jeypore Airport","Lat":"18.880(N)","Lon":"82.552(E)"},{"name":"JODHPUR","Lat":"26.251(N)","Lon":"73.049(E)"},{"name":"KANPUR CHAKERI","Lat":"26.404(N)","Lon":"80.410(E)"},{"name":"CALICUT","Lat":"11.137(N)","Lon":"75.955(E)"},{"name":"Khowai Airport","Lat":"24.062(N)","Lon":"91.604(E)"},{"name":"COCHIN","Lat":"9.947(N)","Lon":"76.273(E)"},{"name":"NETAJI SUBHASH CHANDRA BOSE INTL","Lat":"22.655(N)","Lon":"88.447(E)"},{"name":"Koppal Aerodrome","Lat":"15.359(N)","Lon":"76.219(E)"},{"name":"SILCHAR","Lat":"24.913(N)","Lon":"92.979(E)"},{"name":"Lalitpur Airport","Lat":"24.717(N)","Lon":"78.417(E)"},{"name":"BAKSHI KA TALAB","Lat":"26.988(N)","Lon":"80.893(E)"},{"name":"CHENNAI INTL","Lat":"12.994(N)","Lon":"80.181(E)"},{"name":"Malda Airport","Lat":"25.033(N)","Lon":"88.133(E)"},{"name":"BOKARO","Lat":"23.643(N)","Lon":"86.149(E)"},{"name":"Juhu Aerodrome","Lat":"19.098(N)","Lon":"72.834(E)"},{"name":"CHHATRAPATI SHIVAJI INTL","Lat":"19.089(N)","Lon":"72.868(E)"},{"name":"Mysore Airport","Lat":"12.307(N)","Lon":"76.650(E)"},{"name":"DR AMBEDKAR INTL","Lat":"21.092(N)","Lon":"79.047(E)"},{"name":"NASIK ROAD","Lat":"19.964(N)","Lon":"73.808(E)"},{"name":"NAWAPARA","Lat":"20.870(N)","Lon":"82.520(E)"},{"name":"LILABARI","Lat":"27.295(N)","Lon":"94.098(E)"},{"name":"PANTNAGAR","Lat":"29.033(N)","Lon":"79.474(E)"},{"name":"Pasighat Airport","Lat":"28.066(N)","Lon":"95.336(E)"},{"name":"PORT BLAIR","Lat":"11.641(N)","Lon":"92.730(E)"},{"name":"SRI SATHYA SAI","Lat":"14.149(N)","Lon":"77.791(E)"},{"name":"PUNE","Lat":"18.582(N)","Lon":"73.920(E)"},{"name":"RAJAORI","Lat":"33.378(N)","Lon":"74.315(E)"},{"name":"Ramnad Airport","Lat":"9.325(N)","Lon":"78.971(E)"},{"name":"BIRSA MUNDA","Lat":"23.314(N)","Lon":"85.322(E)"},{"name":"HIRAKUD","Lat":"21.580(N)","Lon":"84.006(E)"},{"name":"BARAPANI","Lat":"25.704(N)","Lon":"91.979(E)"},{"name":"BAGDOGRA","Lat":"26.681(N)","Lon":"88.329(E)"},{"name":"SRINAGAR","Lat":"33.987(N)","Lon":"74.774(E)"},{"name":"SULUR","Lat":"11.014(N)","Lon":"77.160(E)"},{"name":"TEJU NEW","Lat":"27.941(N)","Lon":"96.134(E)"},{"name":"TANJORE","Lat":"10.722(N)","Lon":"79.102(E)"},{"name":"TIRUCHIRAPPALLI","Lat":"10.765(N)","Lon":"78.710(E)"},{"name":"THIRUVANANTHAPURAM INTL","Lat":"8.482(N)","Lon":"76.920(E)"},{"name":"AIZAWL","Lat":"23.747(N)","Lon":"92.803(E)"},{"name":"BENTAYAN","Lat":"23.095(N)","Lon":"75.885(E)"},{"name":"Vellore Airport","Lat":"12.909(N)","Lon":"79.067(E)"},{"name":"Warangal Airport","Lat":"17.914(N)","Lon":"79.602(E)"},{"name":"YELAHANKA","Lat":"13.136(N)","Lon":"77.606(E)"}]